{"source":"National Park Service, verified 2026-07-22","parks":[
{"n":"Weir Farm National Historical Park","t":"National","town":"Wilton / Ridgefield","lat":41.2585,"lng":-73.4550,"url":"https://www.nps.gov/wefa/"},
{"n":"Coltsville National Historical Park","t":"National","town":"Hartford","lat":41.7527,"lng":-72.6656,"url":"https://www.nps.gov/colt/"},
{"n":"Appalachian National Scenic Trail (CT section)","t":"National","town":"Kent (Bulls Bridge access)","lat":41.6767,"lng":-73.5108,"url":"https://www.nps.gov/appa/","note":"~52 miles through CT's northwest corner"},
{"n":"New England National Scenic Trail (CT section)","t":"National","town":"Meriden (Castle Craig area)","lat":41.5606,"lng":-72.8367,"url":"https://newenglandtrail.org/","note":"Runs from Long Island Sound in Guilford north through CT"},
{"n":"Washington-Rochambeau Revolutionary Route NHT (CT)","t":"National","town":"Lebanon (encampment site)","lat":41.6365,"lng":-72.2131,"url":"https://www.nps.gov/waro/"}
]}
